Last login: Fri Aug 12 17:28:18 on ttys000
➜  printMavLinkMsgs git:(master) ✗ solo script run printMavLinkMsgs.py
connecting to solo...
checking pip...
uploading script bundle...
./
./printMavLinkMsgs.py
./requirements.txt
./wheelhouse/
./wheelhouse/dronekit-2.8.0-py2-none-any.whl
./wheelhouse/monotonic-0.6-py2-none-any.whl
./wheelhouse/pymavlink-2.0.6-py2-none-any.whl
Not deleting env/bin
New python executable in env/bin/python
Installing setuptools, pip, wheel...done.
cp: can't stat '/usr/lib/python2.7/site-packages/greenlet*': No such file or directory
Ignoring indexes: https://pypi.python.org/simple
Processing ./wheelhouse/dronekit-2.8.0-py2-none-any.whl
Processing ./wheelhouse/monotonic-0.6-py2-none-any.whl
Processing ./wheelhouse/pymavlink-2.0.6-py2-none-any.whl
Installing collected packages: pymavlink, monotonic, dronekit
Successfully installed dronekit-2.8.0 monotonic-0.6 pymavlink-2.0.6
running script...

ERROR LOADING MAVNATIVE - falling back to python implementation
Connecting to udpin:0.0.0.0:14550...
>>> APM:Copter solo-2.0.20 (609645b5)
>>> PX4: bf80a499 NuttX: a5146c68
>>> Frame: QUAD
>>> PX4v2 00400025 31355103 36333436
waiting for vehicle to arm...
^CTraceback (most recent call last):
  File "/usr/local/bin/solo", line 9, in <module>
    load_entry_point('solo-cli==1.2.0', 'console_scripts', 'solo')()
  File "/System/Library/Frameworks/Python.framework/Versions/2.7/Extras/lib/python/pkg_resources.py", line 357, in load_entry_point
    return get_distribution(dist).load_entry_point(group, name)
  File "/System/Library/Frameworks/Python.framework/Versions/2.7/Extras/lib/python/pkg_resources.py", line 2394, in load_entry_point
    return ep.load()
  File "/System/Library/Frameworks/Python.framework/Versions/2.7/Extras/lib/python/pkg_resources.py", line 2108, in load
    entry = __import__(self.module_name, globals(),globals(), ['__name__'])
  File "/Library/Python/2.7/site-packages/soloutils/__main__.py", line 68, in <module>
    soloutils.script.run_main(args)
  File "/Library/Python/2.7/site-packages/soloutils/script.py", line 81, in run_main
    ''')
  File "/Library/Python/2.7/site-packages/soloutils/__init__.py", line 67, in command_stream
    time.sleep(0.1)
KeyboardInterrupt
➜  printMavLinkMsgs git:(master) ✗ solo script run printMavLinkMsgs.py
connecting to solo...
checking pip...
uploading script bundle...
./
./printMavLinkMsgs.py
./requirements.txt
./wheelhouse/
./wheelhouse/dronekit-2.8.0-py2-none-any.whl
./wheelhouse/monotonic-0.6-py2-none-any.whl
./wheelhouse/pymavlink-2.0.6-py2-none-any.whl
Not deleting env/bin
New python executable in env/bin/python
Installing setuptools, pip, wheel...done.
cp: can't stat '/usr/lib/python2.7/site-packages/greenlet*': No such file or directory
Ignoring indexes: https://pypi.python.org/simple
Processing ./wheelhouse/dronekit-2.8.0-py2-none-any.whl
Processing ./wheelhouse/monotonic-0.6-py2-none-any.whl
Processing ./wheelhouse/pymavlink-2.0.6-py2-none-any.whl
Installing collected packages: pymavlink, monotonic, dronekit
Successfully installed dronekit-2.8.0 monotonic-0.6 pymavlink-2.0.6
running script...

ERROR LOADING MAVNATIVE - falling back to python implementation
Connecting to udpin:0.0.0.0:14550...
>>> APM:Copter solo-2.0.20 (609645b5)
>>> PX4: bf80a499 NuttX: a5146c68
>>> Frame: QUAD
>>> PX4v2 00400025 31355103 36333436
waiting for vehicle to arm...
>>> Flight plan received
>>> Initialising APM
@ DTG:  12-08-2016 07:36:18
mavlink msg: HEARTBEAT {type : 2, autopilot : 3, base_mode : 217, custom_mode : 5, system_status : 3, mavlink_version : 3} 

--------

@ DTG:  12-08-2016 07:36:18
mavlink msg: MISSION_ITEM {target_system : 255, target_component : 6, seq : 0, frame : 0, command : 16, current : 0, autocontinue : 1, param1 : 0.0, param2 : 0.0, param3 : 0.0, param4 : 0.0, x : -19.2815227509, y : 146.824371338, z : 6.48999977112} 

--------

@ DTG:  12-08-2016 07:36:18
mavlink msg: MISSION_ITEM {target_system : 255, target_component : 0, seq : 0, frame : 0, command : 16, current : 0, autocontinue : 1, param1 : 0.0, param2 : 0.0, param3 : 0.0, param4 : 0.0, x : -19.2815227509, y : 146.824371338, z : 6.48999977112} 

--------

@ DTG:  12-08-2016 07:36:18
mavlink msg: SERVO_OUTPUT_RAW {time_usec : 278731495, port : 0, servo1_raw : 1000, servo2_raw : 1000, servo3_raw : 1000, servo4_raw : 1000, servo5_raw : 0, servo6_raw : 0, servo7_raw : 0, servo8_raw : 0} 

--------

@ DTG:  12-08-2016 07:36:18
mavlink msg: RC_CHANNELS_RAW {time_boot_ms : 278731, port : 0, chan1_raw : 1500, chan2_raw : 1500, chan3_raw : 1450, chan4_raw : 1499, chan5_raw : 1000, chan6_raw : 1462, chan7_raw : 1000, chan8_raw : 898, rssi : 0} 

--------

@ DTG:  12-08-2016 07:36:18
mavlink msg: MISSION_ITEM {target_system : 255, target_component : 190, seq : 0, frame : 0, command : 16, current : 0, autocontinue : 1, param1 : 0.0, param2 : 0.0, param3 : 0.0, param4 : 0.0, x : -19.2815227509, y : 146.824371338, z : 6.48999977112} 

--------

@ DTG:  12-08-2016 07:36:18
mavlink msg: RAW_IMU {time_usec : 278772076, xacc : 26, yacc : -1, zacc : -992, xgyro : 0, ygyro : -3, zgyro : 4, xmag : 163, ymag : -313, zmag : -346} 

--------

@ DTG:  12-08-2016 07:36:18
mavlink msg: SCALED_IMU2 {time_boot_ms : 278772, xacc : 23, yacc : 13, zacc : -1021, xgyro : -9, ygyro : -2, zgyro : -4, xmag : 137, ymag : -308, zmag : -418} 

--------

@ DTG:  12-08-2016 07:36:18
mavlink msg: SCALED_IMU3 {time_boot_ms : 278772, xacc : -17, yacc : -6, zacc : -1046, xgyro : 1, ygyro : -1, zgyro : -3, xmag : 414, ymag : -346, zmag : -240} 

--------

@ DTG:  12-08-2016 07:36:18
mavlink msg: SCALED_PRESSURE {time_boot_ms : 278772, press_abs : 1018.11706543, press_diff : -0.0230468753725, temperature : 3523} 

--------

@ DTG:  12-08-2016 07:36:18
mavlink msg: SCALED_PRESSURE2 {time_boot_ms : 278772, press_abs : 1018.77996826, press_diff : 0.150078117847, temperature : 4998} 

--------

@ DTG:  12-08-2016 07:36:18
mavlink msg: SYS_STATUS {onboard_control_sensors_present : 2227247, onboard_control_sensors_enabled : 2227247, onboard_control_sensors_health : 2227247, load : 25984, voltage_battery : 16640, current_battery : 51, battery_remaining : 98, drop_rate_comm : 0, errors_comm : 0, errors_count1 : 0, errors_count2 : 0, errors_count3 : 0, errors_count4 : 0} 

--------

@ DTG:  12-08-2016 07:36:18
mavlink msg: POWER_STATUS {Vcc : 5335, Vservo : 0, flags : 3} 

--------

@ DTG:  12-08-2016 07:36:18
mavlink msg: MEMINFO {brkval : 0, freemem : 59664} 

--------

@ DTG:  12-08-2016 07:36:18
mavlink msg: MISSION_CURRENT {seq : 0} 

--------

@ DTG:  12-08-2016 07:36:18
mavlink msg: GPS_RAW_INT {time_usec : 278656000, fix_type : 4, lat : -192815230, lon : 1468243685, alt : 4480, eph : 65, epv : 96, vel : 3, cog : 0, satellites_visible : 15} 

--------

@ DTG:  12-08-2016 07:36:18
mavlink msg: NAV_CONTROLLER_OUTPUT {nav_roll : 0.0, nav_pitch : 0.0, nav_bearing : 69, target_bearing : 90, wp_dist : 0, alt_error : 0.0, aspd_error : 0.0, xtrack_error : 0.0} 

--------

@ DTG:  12-08-2016 07:36:18
mavlink msg: FENCE_STATUS {breach_status : 0, breach_count : 0, breach_type : 0, breach_time : 0} 

--------

@ DTG:  12-08-2016 07:36:18
mavlink msg: ATTITUDE {time_boot_ms : 278791, roll : -0.00556147843599, pitch : -0.025430360809, yaw : 1.21642148495, rollspeed : 0.000774899730459, pitchspeed : -0.00448235450312, yawspeed : 0.0038567839656} 

--------

@ DTG:  12-08-2016 07:36:18
mavlink msg: AHRS2 {roll : 0.00476574106142, pitch : -0.0403013601899, yaw : 1.20101583004, altitude : 0.0, lat : 0, lng : 0} 

--------

@ DTG:  12-08-2016 07:36:18
mavlink msg: VFR_HUD {airspeed : 0.0299999993294, groundspeed : 0.0299999993294, heading : 69, throttle : 0, alt : 0.00999999977648, climb : 0.00999999977648} 

--------

@ DTG:  12-08-2016 07:36:18
mavlink msg: AHRS {omegaIx : 0.00296968664043, omegaIy : 0.00375132961199, omegaIz : -0.00117043883074, accel_weight : 0.0, renorm_val : 0.0, error_rp : 0.00781653914601, error_yaw : 0.00171229243279} 

--------

@ DTG:  12-08-2016 07:36:18
mavlink msg: HWSTATUS {Vcc : 5322, I2Cerr : 0} 

--------

@ DTG:  12-08-2016 07:36:18
mavlink msg: SYSTEM_TIME {time_unix_usec : 1470987378575000, time_boot_ms : 278791} 

--------

@ DTG:  12-08-2016 07:36:18
mavlink msg: EKF_STATUS_REPORT {flags : 831, velocity_variance : 0.0322473235428, pos_horiz_variance : 0.00660957489163, pos_vert_variance : 0.00238578254357, compass_variance : 0.0110106747597, terrain_alt_variance : 0.0} 

--------

@ DTG:  12-08-2016 07:36:18
mavlink msg: GLOBAL_POSITION_INT {time_boot_ms : 278841, lat : -192815225, lon : 1468243690, alt : 6500, relative_alt : 10, vx : 10, vy : 18, vz : 1, hdg : 6970} 

--------

@ DTG:  12-08-2016 07:36:18
mavlink msg: LOCAL_POSITION_NED {time_boot_ms : 278893, x : -2.50171947479, y : 1.59847176075, z : -0.106191843748, vx : 0.109072655439, vy : 0.188978537917, vz : -0.0121874120086} 

--------

@ DTG:  12-08-2016 07:36:18
mavlink msg: ATTITUDE {time_boot_ms : 279037, roll : -0.00534299388528, pitch : -0.0250607654452, yaw : 1.21664118767, rollspeed : 0.000504407275002, pitchspeed : -0.00460414029658, yawspeed : 0.0033518881537} 

--------

@ DTG:  12-08-2016 07:36:18
mavlink msg: AHRS2 {roll : 0.00497616222128, pitch : -0.0404772348702, yaw : 1.20130860806, altitude : 0.0, lat : 0, lng : 0} 

--------

@ DTG:  12-08-2016 07:36:18
mavlink msg: VFR_HUD {airspeed : 0.0, groundspeed : 0.0, heading : 69, throttle : 0, alt : 0.019999999553, climb : 0.00999999977648} 

--------

@ DTG:  12-08-2016 07:36:18
mavlink msg: SERVO_OUTPUT_RAW {time_usec : 279261423, port : 0, servo1_raw : 1000, servo2_raw : 1000, servo3_raw : 1000, servo4_raw : 1000, servo5_raw : 0, servo6_raw : 0, servo7_raw : 0, servo8_raw : 0} 

--------

@ DTG:  12-08-2016 07:36:18
mavlink msg: RC_CHANNELS_RAW {time_boot_ms : 279261, port : 0, chan1_raw : 1500, chan2_raw : 1500, chan3_raw : 1450, chan4_raw : 1499, chan5_raw : 1000, chan6_raw : 1462, chan7_raw : 1000, chan8_raw : 898, rssi : 0} 

--------

@ DTG:  12-08-2016 07:36:18
mavlink msg: RAW_IMU {time_usec : 279281394, xacc : 26, yacc : 0, zacc : -992, xgyro : 0, ygyro : -4, zgyro : 3, xmag : 164, ymag : -314, zmag : -347} 

--------

@ DTG:  12-08-2016 07:36:18
mavlink msg: SCALED_IMU2 {time_boot_ms : 279281, xacc : 27, yacc : 7, zacc : -1011, xgyro : -10, ygyro : 1, zgyro : 2, xmag : 137, ymag : -305, zmag : -416} 

--------

@ DTG:  12-08-2016 07:36:18
mavlink msg: SCALED_IMU3 {time_boot_ms : 279281, xacc : -16, yacc : -3, zacc : -1046, xgyro : 0, ygyro : 0, zgyro : -1, xmag : 414, ymag : -347, zmag : -237} 

--------

@ DTG:  12-08-2016 07:36:18
mavlink msg: SCALED_PRESSURE {time_boot_ms : 279281, press_abs : 1018.11419678, press_diff : -0.0259374994785, temperature : 3525} 

--------

@ DTG:  12-08-2016 07:36:18
mavlink msg: SCALED_PRESSURE2 {time_boot_ms : 279281, press_abs : 1018.7565918, press_diff : 0.126718744636, temperature : 4998} 

--------

@ DTG:  12-08-2016 07:36:18
mavlink msg: SYS_STATUS {onboard_control_sensors_present : 2227247, onboard_control_sensors_enabled : 2227247, onboard_control_sensors_health : 2227247, load : 25984, voltage_battery : 16640, current_battery : 53, battery_remaining : 98, drop_rate_comm : 0, errors_comm : 0, errors_count1 : 0, errors_count2 : 0, errors_count3 : 0, errors_count4 : 0} 

--------

@ DTG:  12-08-2016 07:36:18
mavlink msg: POWER_STATUS {Vcc : 5338, Vservo : 0, flags : 3} 

--------

@ DTG:  12-08-2016 07:36:18
mavlink msg: MEMINFO {brkval : 0, freemem : 59664} 

--------

@ DTG:  12-08-2016 07:36:18
mavlink msg: MISSION_CURRENT {seq : 0} 

--------

@ DTG:  12-08-2016 07:36:18
mavlink msg: GPS_RAW_INT {time_usec : 279249000, fix_type : 4, lat : -192815231, lon : 1468243684, alt : 4480, eph : 65, epv : 96, vel : 2, cog : 0, satellites_visible : 15} 

--------

@ DTG:  12-08-2016 07:36:18
mavlink msg: NAV_CONTROLLER_OUTPUT {nav_roll : 0.0, nav_pitch : 0.0, nav_bearing : 69, target_bearing : 90, wp_dist : 0, alt_error : 0.0, aspd_error : 0.0, xtrack_error : 0.0} 

--------

@ DTG:  12-08-2016 07:36:18
mavlink msg: FENCE_STATUS {breach_status : 0, breach_count : 0, breach_type : 0, breach_time : 0} 

--------

@ DTG:  12-08-2016 07:36:18
mavlink msg: ATTITUDE {time_boot_ms : 279298, roll : -0.00536125572398, pitch : -0.0245902352035, yaw : 1.21684479713, rollspeed : -0.000465077901026, pitchspeed : -0.00452987663448, yawspeed : 0.00404897797853} 

--------

@ DTG:  12-08-2016 07:36:18
mavlink msg: AHRS2 {roll : 0.00466953823343, pitch : -0.0398464165628, yaw : 1.20158815384, altitude : 0.0, lat : 0, lng : 0} 

--------

@ DTG:  12-08-2016 07:36:18
mavlink msg: VFR_HUD {airspeed : 0.019999999553, groundspeed : 0.019999999553, heading : 69, throttle : 0, alt : 0.019999999553, climb : 0.00999999977648} 

--------

@ DTG:  12-08-2016 07:36:18
mavlink msg: AHRS {omegaIx : 0.00297762546688, omegaIy : 0.00381148909219, omegaIz : -0.00115826434921, accel_weight : 0.0, renorm_val : 0.0, error_rp : 0.0155176399276, error_yaw : 0.00171358778607} 

--------

@ DTG:  12-08-2016 07:36:18
mavlink msg: HWSTATUS {Vcc : 5331, I2Cerr : 0} 

--------

@ DTG:  12-08-2016 07:36:19
mavlink msg: SYSTEM_TIME {time_unix_usec : 1470987379092000, time_boot_ms : 279321} 

--------

@ DTG:  12-08-2016 07:36:19
mavlink msg: EKF_STATUS_REPORT {flags : 831, velocity_variance : 0.0549814328551, pos_horiz_variance : 0.0227898731828, pos_vert_variance : 0.00282744993456, compass_variance : 0.00601309537888, terrain_alt_variance : 0.0} 

--------

@ DTG:  12-08-2016 07:36:19
mavlink msg: GLOBAL_POSITION_INT {time_boot_ms : 279249, lat : -192815223, lon : 1468243696, alt : 6510, relative_alt : 20, vx : 13, vy : 26, vz : 1, hdg : 6972} 

--------

@ DTG:  12-08-2016 07:36:19
mavlink msg: LOCAL_POSITION_NED {time_boot_ms : 279405, x : -2.47625303268, y : 1.65892970562, z : -0.113228105009, vx : 0.134128049016, vy : 0.266501098871, vz : -0.0145547352731} 

--------

@ DTG:  12-08-2016 07:36:19
mavlink msg: RADIO_STATUS {rssi : 0, remrssi : 222, txbuf : 0, noise : 0, remnoise : 0, rxerrors : 66, fixed : 0} 

--------

@ DTG:  12-08-2016 07:36:19
mavlink msg: ATTITUDE {time_boot_ms : 279527, roll : -0.00519855879247, pitch : -0.0239387974143, yaw : 1.21698713303, rollspeed : -0.000101042794995, pitchspeed : -0.00474929995835, yawspeed : 0.00295501551591} 

--------

@ DTG:  12-08-2016 07:36:19
mavlink msg: AHRS2 {roll : 0.00482169538736, pitch : -0.0393817648292, yaw : 1.20175611973, altitude : 0.0, lat : 0, lng : 0} 

--------

@ DTG:  12-08-2016 07:36:19
mavlink msg: VFR_HUD {airspeed : 0.0299999993294, groundspeed : 0.0299999993294, heading : 69, throttle : 0, alt : 0.019999999553, climb : 0.00999999977648} 

--------

@ DTG:  12-08-2016 07:36:19
mavlink msg: HEARTBEAT {type : 2, autopilot : 3, base_mode : 217, custom_mode : 5, system_status : 3, mavlink_version : 3} 

--------

@ DTG:  12-08-2016 07:36:19
mavlink msg: SERVO_OUTPUT_RAW {time_usec : 279772964, port : 0, servo1_raw : 1000, servo2_raw : 1000, servo3_raw : 1000, servo4_raw : 1000, servo5_raw : 0, servo6_raw : 0, servo7_raw : 0, servo8_raw : 0} 

--------

@ DTG:  12-08-2016 07:36:19
mavlink msg: RC_CHANNELS_RAW {time_boot_ms : 279772, port : 0, chan1_raw : 1500, chan2_raw : 1500, chan3_raw : 1450, chan4_raw : 1499, chan5_raw : 1000, chan6_raw : 1462, chan7_raw : 1000, chan8_raw : 898, rssi : 0} 

--------

@ DTG:  12-08-2016 07:36:19
mavlink msg: ATTITUDE {time_boot_ms : 279773, roll : -0.00513427890837, pitch : -0.0234011281282, yaw : 1.21703386307, rollspeed : -0.000669659639243, pitchspeed : -0.0042272740975, yawspeed : 0.00310204620473} 

--------

@ DTG:  12-08-2016 07:36:19
mavlink msg: AHRS2 {roll : 0.00484930025414, pitch : -0.0397446118295, yaw : 1.20180726051, altitude : 0.0, lat : 0, lng : 0} 

--------

@ DTG:  12-08-2016 07:36:19
mavlink msg: RAW_IMU {time_usec : 279792656, xacc : 25, yacc : -1, zacc : -992, xgyro : 0, ygyro : -4, zgyro : 3, xmag : 163, ymag : -314, zmag : -348} 

--------

@ DTG:  12-08-2016 07:36:19
mavlink msg: SCALED_IMU2 {time_boot_ms : 279792, xacc : 20, yacc : 18, zacc : -1009, xgyro : -4, ygyro : -2, zgyro : 2, xmag : 137, ymag : -307, zmag : -417} 

--------

@ DTG:  12-08-2016 07:36:19
mavlink msg: SCALED_IMU3 {time_boot_ms : 279792, xacc : -19, yacc : -5, zacc : -1045, xgyro : 0, ygyro : 0, zgyro : -2, xmag : 416, ymag : -348, zmag : -240} 

--------

@ DTG:  12-08-2016 07:36:19
mavlink msg: SCALED_PRESSURE {time_boot_ms : 279792, press_abs : 1018.11846924, press_diff : -0.021640624851, temperature : 3525} 

--------

@ DTG:  12-08-2016 07:36:19
mavlink msg: SCALED_PRESSURE2 {time_boot_ms : 279792, press_abs : 1018.765625, press_diff : 0.135703116655, temperature : 4999} 

--------

@ DTG:  12-08-2016 07:36:19
mavlink msg: SYS_STATUS {onboard_control_sensors_present : 2227247, onboard_control_sensors_enabled : 2227247, onboard_control_sensors_health : 2227247, load : 25984, voltage_battery : 16640, current_battery : 53, battery_remaining : 98, drop_rate_comm : 0, errors_comm : 0, errors_count1 : 0, errors_count2 : 0, errors_count3 : 0, errors_count4 : 0} 

--------

@ DTG:  12-08-2016 07:36:19
mavlink msg: POWER_STATUS {Vcc : 5339, Vservo : 0, flags : 3} 

--------

@ DTG:  12-08-2016 07:36:19
mavlink msg: MEMINFO {brkval : 0, freemem : 59664} 

--------

@ DTG:  12-08-2016 07:36:19
mavlink msg: MISSION_CURRENT {seq : 0} 

--------

@ DTG:  12-08-2016 07:36:19
mavlink msg: GPS_RAW_INT {time_usec : 279658000, fix_type : 4, lat : -192815231, lon : 1468243683, alt : 4480, eph : 65, epv : 96, vel : 1, cog : 0, satellites_visible : 15} 

--------

@ DTG:  12-08-2016 07:36:19
mavlink msg: NAV_CONTROLLER_OUTPUT {nav_roll : 0.0, nav_pitch : 0.0, nav_bearing : 69, target_bearing : 90, wp_dist : 0, alt_error : 0.0, aspd_error : 0.0, xtrack_error : 0.0} 

--------

@ DTG:  12-08-2016 07:36:19
mavlink msg: FENCE_STATUS {breach_status : 0, breach_count : 0, breach_type : 0, breach_time : 0} 

--------

@ DTG:  12-08-2016 07:36:19
mavlink msg: VFR_HUD {airspeed : 0.00999999977648, groundspeed : 0.00999999977648, heading : 69, throttle : 0, alt : 0.019999999553, climb : 0.00999999977648} 

--------

@ DTG:  12-08-2016 07:36:19
mavlink msg: AHRS {omegaIx : 0.00298092653975, omegaIy : 0.00390843302011, omegaIz : -0.0011382442899, accel_weight : 0.0, renorm_val : 0.0, error_rp : 0.0153047638014, error_yaw : 0.00179112341721} 

--------

@ DTG:  12-08-2016 07:36:19
mavlink msg: HWSTATUS {Vcc : 5338, I2Cerr : 0} 

--------

@ DTG:  12-08-2016 07:36:19
mavlink msg: SYSTEM_TIME {time_unix_usec : 1470987379635000, time_boot_ms : 279855} 

--------

@ DTG:  12-08-2016 07:36:19
mavlink msg: EKF_STATUS_REPORT {flags : 831, velocity_variance : 0.0685059502721, pos_horiz_variance : 0.0390752367675, pos_vert_variance : 0.00143752095755, compass_variance : 0.0174375362694, terrain_alt_variance : 0.0} 

--------

@ DTG:  12-08-2016 07:36:19
mavlink msg: GLOBAL_POSITION_INT {time_boot_ms : 279842, lat : -192815221, lon : 1468243702, alt : 6510, relative_alt : 20, vx : 14, vy : 31, vz : 1, hdg : 6974} 

--------

@ DTG:  12-08-2016 07:36:19
mavlink msg: LOCAL_POSITION_NED {time_boot_ms : 279935, x : -2.45581364632, y : 1.71439838409, z : -0.119712777436, vx : 0.149417817593, vy : 0.317022174597, vz : -0.0119863115251} 

--------

@ DTG:  12-08-2016 07:36:19
mavlink msg: ATTITUDE {time_boot_ms : 280038, roll : -0.00516532128677, pitch : -0.0226086620241, yaw : 1.21734952927, rollspeed : 0.000137389390147, pitchspeed : -0.0044134715572, yawspeed : 0.00368747324683} 

--------

@ DTG:  12-08-2016 07:36:19
mavlink msg: AHRS2 {roll : 0.00483071198687, pitch : -0.0396608151495, yaw : 1.20210087299, altitude : 0.0, lat : 0, lng : 0} 

--------

@ DTG:  12-08-2016 07:36:19
mavlink msg: VFR_HUD {airspeed : 0.00999999977648, groundspeed : 0.00999999977648, heading : 69, throttle : 8, alt : 0.0299999993294, climb : 0.00999999977648} 

--------

@ DTG:  12-08-2016 07:36:19
mavlink msg: ATTITUDE {time_boot_ms : 280285, roll : -0.00524127995595, pitch : -0.0217016488314, yaw : 1.21759164333, rollspeed : 0.00680445926264, pitchspeed : 0.000244502793066, yawspeed : 0.000243095622864} 

--------

@ DTG:  12-08-2016 07:36:19
mavlink msg: AHRS2 {roll : 0.00472398800775, pitch : -0.0399495437741, yaw : 1.202293396, altitude : 0.0, lat : 0, lng : 0} 

--------

@ DTG:  12-08-2016 07:36:19
mavlink msg: RAW_IMU {time_usec : 280305380, xacc : 24, yacc : -5, zacc : -990, xgyro : 8, ygyro : 5, zgyro : 3, xmag : 164, ymag : -311, zmag : -345} 

--------

@ DTG:  12-08-2016 07:36:19
mavlink msg: SCALED_IMU2 {time_boot_ms : 280305, xacc : 15, yacc : 6, zacc : -1010, xgyro : -7, ygyro : -10, zgyro : 0, xmag : 136, ymag : -315, zmag : -426} 

--------

@ DTG:  12-08-2016 07:36:19
mavlink msg: SCALED_IMU3 {time_boot_ms : 280305, xacc : -20, yacc : -11, zacc : -1042, xgyro : -5, ygyro : -3, zgyro : 1, xmag : 415, ymag : -355, zmag : -255} 

--------

@ DTG:  12-08-2016 07:36:19
mavlink msg: SCALED_PRESSURE {time_boot_ms : 280305, press_abs : 1018.14489746, press_diff : 0.00476562511176, temperature : 3527} 

--------

@ DTG:  12-08-2016 07:36:19
mavlink msg: SCALED_PRESSURE2 {time_boot_ms : 280305, press_abs : 1018.78326416, press_diff : 0.153359368443, temperature : 5000} 

--------

@ DTG:  12-08-2016 07:36:19
mavlink msg: SYS_STATUS {onboard_control_sensors_present : 2227247, onboard_control_sensors_enabled : 2227247, onboard_control_sensors_health : 2227247, load : 25856, voltage_battery : 16641, current_battery : 53, battery_remaining : 98, drop_rate_comm : 0, errors_comm : 0, errors_count1 : 0, errors_count2 : 0, errors_count3 : 0, errors_count4 : 0} 

--------

@ DTG:  12-08-2016 07:36:19
mavlink msg: POWER_STATUS {Vcc : 5336, Vservo : 0, flags : 3} 

--------

@ DTG:  12-08-2016 07:36:19
mavlink msg: MEMINFO {brkval : 0, freemem : 59664} 

--------

@ DTG:  12-08-2016 07:36:19
mavlink msg: MISSION_CURRENT {seq : 0} 

--------

@ DTG:  12-08-2016 07:36:19
mavlink msg: GPS_RAW_INT {time_usec : 280252000, fix_type : 4, lat : -192815231, lon : 1468243683, alt : 4470, eph : 65, epv : 96, vel : 1, cog : 0, satellites_visible : 15} 

--------

@ DTG:  12-08-2016 07:36:19
mavlink msg: NAV_CONTROLLER_OUTPUT {nav_roll : 0.0, nav_pitch : 0.0, nav_bearing : 69, target_bearing : 90, wp_dist : 0, alt_error : 0.0, aspd_error : 0.0, xtrack_error : 0.0} 

--------

@ DTG:  12-08-2016 07:36:19
mavlink msg: FENCE_STATUS {breach_status : 0, breach_count : 0, breach_type : 0, breach_time : 0} 

--------

@ DTG:  12-08-2016 07:36:19
mavlink msg: SERVO_OUTPUT_RAW {time_usec : 280325775, port : 0, servo1_raw : 1074, servo2_raw : 1074, servo3_raw : 1074, servo4_raw : 1074, servo5_raw : 0, servo6_raw : 0, servo7_raw : 0, servo8_raw : 0} 

--------

@ DTG:  12-08-2016 07:36:19
mavlink msg: RC_CHANNELS_RAW {time_boot_ms : 280325, port : 0, chan1_raw : 1500, chan2_raw : 1500, chan3_raw : 1450, chan4_raw : 1499, chan5_raw : 1000, chan6_raw : 1462, chan7_raw : 1000, chan8_raw : 898, rssi : 0} 

--------

@ DTG:  12-08-2016 07:36:19
mavlink msg: VFR_HUD {airspeed : 0.00999999977648, groundspeed : 0.00999999977648, heading : 69, throttle : 8, alt : 0.0299999993294, climb : 0.00999999977648} 

--------

@ DTG:  12-08-2016 07:36:19
mavlink msg: AHRS {omegaIx : 0.00298168906011, omegaIy : 0.00398302916437, omegaIz : -0.00112404557876, accel_weight : 0.0, renorm_val : 0.0, error_rp : 0.0152390142903, error_yaw : 0.00334306899458} 

--------

@ DTG:  12-08-2016 07:36:19
mavlink msg: HWSTATUS {Vcc : 5335, I2Cerr : 0} 

--------

@ DTG:  12-08-2016 07:36:20
mavlink msg: SYSTEM_TIME {time_unix_usec : 1470987380179000, time_boot_ms : 280389} 

--------

@ DTG:  12-08-2016 07:36:20
mavlink msg: EKF_STATUS_REPORT {flags : 831, velocity_variance : 0.0719616338611, pos_horiz_variance : 0.0481486059725, pos_vert_variance : 0.000904270505998, compass_variance : 0.0274928417057, terrain_alt_variance : 0.0} 

--------

@ DTG:  12-08-2016 07:36:20
mavlink msg: GLOBAL_POSITION_INT {time_boot_ms : 280458, lat : -192815219, lon : 1468243706, alt : 6520, relative_alt : 30, vx : 15, vy : 34, vz : 1, hdg : 6978} 

--------

@ DTG:  12-08-2016 07:36:20
mavlink msg: LOCAL_POSITION_NED {time_boot_ms : 280472, x : -2.43637347221, y : 1.76621496677, z : -0.123840548098, vx : 0.158899664879, vy : 0.349276632071, vz : -0.0156654436141} 

--------

@ DTG:  12-08-2016 07:36:20
mavlink msg: RADIO_STATUS {rssi : 0, remrssi : 222, txbuf : 0, noise : 0, remnoise : 0, rxerrors : 33, fixed : 0} 

--------

@ DTG:  12-08-2016 07:36:20
mavlink msg: ATTITUDE {time_boot_ms : 280552, roll : -0.00540741160512, pitch : -0.0208159685135, yaw : 1.21815919876, rollspeed : -0.00485947681591, pitchspeed : -0.00580869149417, yawspeed : 0.00433971500024} 

--------

@ DTG:  12-08-2016 07:36:20
mavlink msg: AHRS2 {roll : 0.0046284487471, pitch : -0.0399371236563, yaw : 1.20278525352, altitude : 0.0, lat : 0, lng : 0} 

--------

@ DTG:  12-08-2016 07:36:20
mavlink msg: VFR_HUD {airspeed : 0.019999999553, groundspeed : 0.019999999553, heading : 69, throttle : 8, alt : 0.0299999993294, climb : 0.019999999553} 

--------

@ DTG:  12-08-2016 07:36:20
mavlink msg: HEARTBEAT {type : 2, autopilot : 3, base_mode : 217, custom_mode : 5, system_status : 3, mavlink_version : 3} 

--------

@ DTG:  12-08-2016 07:36:20
mavlink msg: ATTITUDE {time_boot_ms : 280797, roll : -0.00588996428996, pitch : -0.0201485026628, yaw : 1.21868109703, rollspeed : -0.001269056811, pitchspeed : -0.00626813620329, yawspeed : 0.0025707220193} 

--------

@ DTG:  12-08-2016 07:36:20
mavlink msg: AHRS2 {roll : 0.00418112426996, pitch : -0.0403847023845, yaw : 1.20322418213, altitude : 0.0, lat : 0, lng : 0} 

--------

@ DTG:  12-08-2016 07:36:20
mavlink msg: RAW_IMU {time_usec : 280817762, xacc : 34, yacc : -5, zacc : -999, xgyro : 2, ygyro : -5, zgyro : 2, xmag : 166, ymag : -314, zmag : -348} 

--------

@ DTG:  12-08-2016 07:36:20
mavlink msg: SCALED_IMU2 {time_boot_ms : 280817, xacc : 35, yacc : 9, zacc : -1029, xgyro : -5, ygyro : -3, zgyro : 2, xmag : 136, ymag : -313, zmag : -424} 

--------

@ DTG:  12-08-2016 07:36:20
mavlink msg: SCALED_IMU3 {time_boot_ms : 280817, xacc : -15, yacc : -8, zacc : -1053, xgyro : 2, ygyro : 0, zgyro : -4, xmag : 414, ymag : -351, zmag : -251} 

--------

@ DTG:  12-08-2016 07:36:20
mavlink msg: SCALED_PRESSURE {time_boot_ms : 280817, press_abs : 1018.14434814, press_diff : 0.00421874970198, temperature : 3527} 

--------

@ DTG:  12-08-2016 07:36:20
mavlink msg: SCALED_PRESSURE2 {time_boot_ms : 280817, press_abs : 1018.77996826, press_diff : 0.150078117847, temperature : 5001} 

--------

@ DTG:  12-08-2016 07:36:20
mavlink msg: SENSOR_OFFSETS {mag_ofs_x : 29, mag_ofs_y : 67, mag_ofs_z : 92, mag_declination : 0.126033216715, raw_press : 101814, raw_temp : 3527, gyro_cal_x : -0.0189192816615, gyro_cal_y : -0.00500498060137, gyro_cal_z : -0.0122298430651, accel_cal_x : -0.0947328433394, accel_cal_y : 0.0666715651751, accel_cal_z : 0.674211740494} 

--------

@ DTG:  12-08-2016 07:36:20
mavlink msg: SYS_STATUS {onboard_control_sensors_present : 2227247, onboard_control_sensors_enabled : 2227247, onboard_control_sensors_health : 2227247, load : 26112, voltage_battery : 16623, current_battery : 145, battery_remaining : 98, drop_rate_comm : 0, errors_comm : 0, errors_count1 : 0, errors_count2 : 0, errors_count3 : 0, errors_count4 : 0} 

--------

@ DTG:  12-08-2016 07:36:20
mavlink msg: POWER_STATUS {Vcc : 5339, Vservo : 0, flags : 3} 

--------

@ DTG:  12-08-2016 07:36:20
mavlink msg: MEMINFO {brkval : 0, freemem : 59664} 

--------

@ DTG:  12-08-2016 07:36:20
mavlink msg: MISSION_CURRENT {seq : 0} 

--------

@ DTG:  12-08-2016 07:36:20
mavlink msg: GPS_RAW_INT {time_usec : 280663000, fix_type : 4, lat : -192815231, lon : 1468243683, alt : 4460, eph : 65, epv : 96, vel : 1, cog : 0, satellites_visible : 15} 

--------

@ DTG:  12-08-2016 07:36:20
mavlink msg: NAV_CONTROLLER_OUTPUT {nav_roll : 0.0, nav_pitch : 0.0, nav_bearing : 69, target_bearing : 90, wp_dist : 0, alt_error : 0.0, aspd_error : 0.0, xtrack_error : 0.0} 

--------

@ DTG:  12-08-2016 07:36:20
mavlink msg: FENCE_STATUS {breach_status : 0, breach_count : 0, breach_type : 0, breach_time : 0} 

--------

@ DTG:  12-08-2016 07:36:20
mavlink msg: VFR_HUD {airspeed : 0.00999999977648, groundspeed : 0.00999999977648, heading : 69, throttle : 8, alt : 0.0299999993294, climb : 0.019999999553} 

--------

@ DTG:  12-08-2016 07:36:20
mavlink msg: SERVO_OUTPUT_RAW {time_usec : 280857856, port : 0, servo1_raw : 1074, servo2_raw : 1074, servo3_raw : 1074, servo4_raw : 1074, servo5_raw : 0, servo6_raw : 0, servo7_raw : 0, servo8_raw : 0} 

--------

@ DTG:  12-08-2016 07:36:20
mavlink msg: RC_CHANNELS_RAW {time_boot_ms : 280857, port : 0, chan1_raw : 1500, chan2_raw : 1500, chan3_raw : 1450, chan4_raw : 1499, chan5_raw : 1000, chan6_raw : 1462, chan7_raw : 1000, chan8_raw : 898, rssi : 0} 

--------

@ DTG:  12-08-2016 07:36:20
mavlink msg: AHRS {omegaIx : 0.00298190815374, omegaIy : 0.00411283317953, omegaIz : -0.00110822764691, accel_weight : 0.0, renorm_val : 0.0, error_rp : 0.0148514676839, error_yaw : 0.0078965742141} 

--------

@ DTG:  12-08-2016 07:36:20
mavlink msg: HWSTATUS {Vcc : 5333, I2Cerr : 0} 

--------

@ DTG:  12-08-2016 07:36:20
mavlink msg: SYSTEM_TIME {time_unix_usec : 1470987380695000, time_boot_ms : 280920} 

--------

@ DTG:  12-08-2016 07:36:20
mavlink msg: EKF_STATUS_REPORT {flags : 831, velocity_variance : 0.0795178040862, pos_horiz_variance : 0.0589931644499, pos_vert_variance : 0.0010653330246, compass_variance : 0.0187991205603, terrain_alt_variance : 0.0} 

--------

@ DTG:  12-08-2016 07:36:20
mavlink msg: GLOBAL_POSITION_INT {time_boot_ms : 280845, lat : -192815218, lon : 1468243710, alt : 6530, relative_alt : 40, vx : 16, vy : 35, vz : 2, hdg : 6984} 

--------

@ DTG:  12-08-2016 07:36:20
mavlink msg: LOCAL_POSITION_NED {time_boot_ms : 281001, x : -2.42283701897, y : 1.80019414425, z : -0.13244946301, vx : 0.160117477179, vy : 0.351786643267, vz : -0.0294899027795} 

--------

@ DTG:  12-08-2016 07:36:20
mavlink msg: ATTITUDE {time_boot_ms : 281061, roll : -0.0061420975253, pitch : -0.0189883038402, yaw : 1.21906960011, rollspeed : -0.00660211965442, pitchspeed : -0.00426502805203, yawspeed : 0.003943790216} 

--------

@ DTG:  12-08-2016 07:36:20
mavlink msg: AHRS2 {roll : 0.00403969176114, pitch : -0.0400901511312, yaw : 1.20352315903, altitude : 0.0, lat : 0, lng : 0} 

--------

@ DTG:  12-08-2016 07:36:20
mavlink msg: VFR_HUD {airspeed : 0.019999999553, groundspeed : 0.019999999553, heading : 69, throttle : 8, alt : 0.0399999991059, climb : 0.019999999553} 

--------

@ DTG:  12-08-2016 07:36:20
mavlink msg: ATTITUDE {time_boot_ms : 281307, roll : -0.00605495180935, pitch : -0.0179460868239, yaw : 1.21949243546, rollspeed : 0.00693762023002, pitchspeed : -0.00163726718165, yawspeed : 0.00274929171428} 

--------

@ DTG:  12-08-2016 07:36:20
mavlink msg: AHRS2 {roll : 0.00403957162052, pitch : -0.0402966067195, yaw : 1.20381379128, altitude : 0.0, lat : 0, lng : 0} 

--------

@ DTG:  12-08-2016 07:36:20
mavlink msg: RAW_IMU {time_usec : 281327937, xacc : 26, yacc : -9, zacc : -997, xgyro : 2, ygyro : -9, zgyro : 4, xmag : 165, ymag : -312, zmag : -348} 

--------

@ DTG:  12-08-2016 07:36:20
mavlink msg: SCALED_IMU2 {time_boot_ms : 281327, xacc : 10, yacc : 0, zacc : -1025, xgyro : -5, ygyro : -4, zgyro : 0, xmag : 135, ymag : -313, zmag : -424} 

--------

@ DTG:  12-08-2016 07:36:20
mavlink msg: SCALED_IMU3 {time_boot_ms : 281327, xacc : -19, yacc : -13, zacc : -1052, xgyro : 3, ygyro : -3, zgyro : -1, xmag : 414, ymag : -355, zmag : -249} 

--------

@ DTG:  12-08-2016 07:36:20
mavlink msg: SCALED_PRESSURE {time_boot_ms : 281328, press_abs : 1018.14331055, press_diff : 0.00320312497206, temperature : 3529} 

--------

@ DTG:  12-08-2016 07:36:20
mavlink msg: SCALED_PRESSURE2 {time_boot_ms : 281328, press_abs : 1018.76269531, press_diff : 0.1328125, temperature : 5002} 

--------

@ DTG:  12-08-2016 07:36:20
mavlink msg: SYS_STATUS {onboard_control_sensors_present : 2227247, onboard_control_sensors_enabled : 2227247, onboard_control_sensors_health : 2227247, load : 25984, voltage_battery : 16623, current_battery : 142, battery_remaining : 98, drop_rate_comm : 0, errors_comm : 0, errors_count1 : 0, errors_count2 : 0, errors_count3 : 0, errors_count4 : 0} 

--------

@ DTG:  12-08-2016 07:36:20
mavlink msg: POWER_STATUS {Vcc : 5335, Vservo : 0, flags : 3} 

--------

@ DTG:  12-08-2016 07:36:20
mavlink msg: MEMINFO {brkval : 0, freemem : 59664} 

--------

@ DTG:  12-08-2016 07:36:20
mavlink msg: MISSION_CURRENT {seq : 0} 

--------

@ DTG:  12-08-2016 07:36:20
mavlink msg: GPS_RAW_INT {time_usec : 281274000, fix_type : 4, lat : -192815231, lon : 1468243684, alt : 4460, eph : 65, epv : 96, vel : 1, cog : 0, satellites_visible : 15} 

--------

@ DTG:  12-08-2016 07:36:20
mavlink msg: NAV_CONTROLLER_OUTPUT {nav_roll : 0.0, nav_pitch : 0.0, nav_bearing : 69, target_bearing : 90, wp_dist : 0, alt_error : 0.0, aspd_error : 0.0, xtrack_error : 0.0} 

--------

@ DTG:  12-08-2016 07:36:20
mavlink msg: FENCE_STATUS {breach_status : 0, breach_count : 0, breach_type : 0, breach_time : 0} 

--------

@ DTG:  12-08-2016 07:36:20
mavlink msg: VFR_HUD {airspeed : 0.00999999977648, groundspeed : 0.00999999977648, heading : 69, throttle : 8, alt : 0.0499999970198, climb : 0.019999999553} 

--------

@ DTG:  12-08-2016 07:36:20
mavlink msg: SERVO_OUTPUT_RAW {time_usec : 281389457, port : 0, servo1_raw : 1074, servo2_raw : 1074, servo3_raw : 1074, servo4_raw : 1074, servo5_raw : 0, servo6_raw : 0, servo7_raw : 0, servo8_raw : 0} 

--------

@ DTG:  12-08-2016 07:36:20
mavlink msg: RC_CHANNELS_RAW {time_boot_ms : 281389, port : 0, chan1_raw : 1500, chan2_raw : 1500, chan3_raw : 1450, chan4_raw : 1499, chan5_raw : 1000, chan6_raw : 1462, chan7_raw : 1000, chan8_raw : 898, rssi : 0} 

--------

@ DTG:  12-08-2016 07:36:20
mavlink msg: AHRS {omegaIx : 0.00298165902495, omegaIy : 0.00420385506004, omegaIz : -0.00109580322169, accel_weight : 0.0, renorm_val : 0.0, error_rp : 0.0149546759203, error_yaw : 0.00899096485227} 

--------

@ DTG:  12-08-2016 07:36:20
mavlink msg: HWSTATUS {Vcc : 5327, I2Cerr : 0} 

--------

@ DTG:  12-08-2016 07:36:21
mavlink msg: SYSTEM_TIME {time_unix_usec : 1470987381233000, time_boot_ms : 281449} 

--------

@ DTG:  12-08-2016 07:36:21
mavlink msg: EKF_STATUS_REPORT {flags : 831, velocity_variance : 0.0778589919209, pos_horiz_variance : 0.0641655921936, pos_vert_variance : 0.000666427542455, compass_variance : 0.0113255316392, terrain_alt_variance : 0.0} 

--------

@ DTG:  12-08-2016 07:36:21
mavlink msg: RADIO_STATUS {rssi : 0, remrssi : 222, txbuf : 0, noise : 0, remnoise : 0, rxerrors : 34, fixed : 0} 

--------

@ DTG:  12-08-2016 07:36:21
mavlink msg: GLOBAL_POSITION_INT {time_boot_ms : 281456, lat : -192815217, lon : 1468243713, alt : 6540, relative_alt : 50, vx : 15, vy : 35, vz : 3, hdg : 6990} 

--------

@ DTG:  12-08-2016 07:36:21
mavlink msg: LOCAL_POSITION_NED {time_boot_ms : 281531, x : -2.41115951538, y : 1.8300267458, z : -0.145239830017, vx : 0.157457157969, vy : 0.352166801691, vz : -0.0305844061077} 

--------

@ DTG:  12-08-2016 07:36:21
mavlink msg: ATTITUDE {time_boot_ms : 281571, roll : -0.0063115414232, pitch : -0.0166682638228, yaw : 1.22013449669, rollspeed : -0.0049502896145, pitchspeed : -0.00701013114303, yawspeed : 0.00560172833502} 

--------

@ DTG:  12-08-2016 07:36:21
mavlink msg: AHRS2 {roll : 0.00390960415825, pitch : -0.0401211492717, yaw : 1.20430850983, altitude : 0.0, lat : 0, lng : 0} 

--------

@ DTG:  12-08-2016 07:36:21
mavlink msg: VFR_HUD {airspeed : 0.019999999553, groundspeed : 0.019999999553, heading : 69, throttle : 8, alt : 0.0499999970198, climb : 0.0299999993294} 

--------

@ DTG:  12-08-2016 07:36:21
mavlink msg: HEARTBEAT {type : 2, autopilot : 3, base_mode : 217, custom_mode : 5, system_status : 3, mavlink_version : 3} 

--------

@ DTG:  12-08-2016 07:36:21
mavlink msg: ATTITUDE {time_boot_ms : 281818, roll : -0.00633923476562, pitch : -0.0153436046094, yaw : 1.22049951553, rollspeed : -0.00332048395649, pitchspeed : -0.00129567680415, yawspeed : 0.00479921838269} 

--------

@ DTG:  12-08-2016 07:36:21
mavlink msg: AHRS2 {roll : 0.0040130908601, pitch : -0.0399549119174, yaw : 1.20451927185, altitude : 0.0, lat : 0, lng : 0} 

--------

@ DTG:  12-08-2016 07:36:21
mavlink msg: RAW_IMU {time_usec : 281838539, xacc : 22, yacc : 0, zacc : -985, xgyro : 0, ygyro : -2, zgyro : 1, xmag : 163, ymag : -314, zmag : -349} 

--------

@ DTG:  12-08-2016 07:36:21
mavlink msg: SCALED_IMU2 {time_boot_ms : 281838, xacc : 22, yacc : 16, zacc : -1013, xgyro : -5, ygyro : -8, zgyro : -2, xmag : 136, ymag : -312, zmag : -424} 

--------

@ DTG:  12-08-2016 07:36:21
mavlink msg: SCALED_IMU3 {time_boot_ms : 281838, xacc : -18, yacc : -3, zacc : -1042, xgyro : 0, ygyro : 1, zgyro : -4, xmag : 414, ymag : -350, zmag : -249} 

--------

@ DTG:  12-08-2016 07:36:21
mavlink msg: SCALED_PRESSURE {time_boot_ms : 281838, press_abs : 1018.13848877, press_diff : -0.00164062494878, temperature : 3529} 

--------

@ DTG:  12-08-2016 07:36:21
mavlink msg: SCALED_PRESSURE2 {time_boot_ms : 281838, press_abs : 1018.78277588, press_diff : 0.152890622616, temperature : 5003} 

--------

@ DTG:  12-08-2016 07:36:21
mavlink msg: SYS_STATUS {onboard_control_sensors_present : 2227247, onboard_control_sensors_enabled : 2227247, onboard_control_sensors_health : 2227247, load : 25984, voltage_battery : 16622, current_battery : 144, battery_remaining : 98, drop_rate_comm : 0, errors_comm : 0, errors_count1 : 0, errors_count2 : 0, errors_count3 : 0, errors_count4 : 0} 

--------

@ DTG:  12-08-2016 07:36:21
mavlink msg: POWER_STATUS {Vcc : 5338, Vservo : 0, flags : 3} 

--------

@ DTG:  12-08-2016 07:36:21
mavlink msg: MEMINFO {brkval : 0, freemem : 59664} 

--------

@ DTG:  12-08-2016 07:36:21
mavlink msg: MISSION_CURRENT {seq : 0} 

--------

@ DTG:  12-08-2016 07:36:21
mavlink msg: GPS_RAW_INT {time_usec : 281640000, fix_type : 4, lat : -192815230, lon : 1468243682, alt : 4460, eph : 65, epv : 96, vel : 1, cog : 0, satellites_visible : 15} 

--------

@ DTG:  12-08-2016 07:36:21
mavlink msg: NAV_CONTROLLER_OUTPUT {nav_roll : 0.0, nav_pitch : 0.0, nav_bearing : 69, target_bearing : 90, wp_dist : 0, alt_error : 0.0, aspd_error : 0.0, xtrack_error : 0.0} 

--------

@ DTG:  12-08-2016 07:36:21
mavlink msg: FENCE_STATUS {breach_status : 0, breach_count : 0, breach_type : 0, breach_time : 0} 

--------

@ DTG:  12-08-2016 07:36:21
mavlink msg: VFR_HUD {airspeed : 0.00999999977648, groundspeed : 0.00999999977648, heading : 69, throttle : 8, alt : 0.0499999970198, climb : 0.0299999993294} 

--------

@ DTG:  12-08-2016 07:36:21
mavlink msg: SERVO_OUTPUT_RAW {time_usec : 281900093, port : 0, servo1_raw : 1074, servo2_raw : 1074, servo3_raw : 1074, servo4_raw : 1074, servo5_raw : 0, servo6_raw : 0, servo7_raw : 0, servo8_raw : 0} 

--------

@ DTG:  12-08-2016 07:36:21
mavlink msg: RC_CHANNELS_RAW {time_boot_ms : 281900, port : 0, chan1_raw : 1500, chan2_raw : 1500, chan3_raw : 1450, chan4_raw : 1499, chan5_raw : 1000, chan6_raw : 1462, chan7_raw : 1000, chan8_raw : 898, rssi : 0} 

--------

@ DTG:  12-08-2016 07:36:21
mavlink msg: AHRS {omegaIx : 0.00298095867038, omegaIy : 0.00434528104961, omegaIz : -0.00107415486127, accel_weight : 0.0, renorm_val : 0.0, error_rp : 0.0121231414378, error_yaw : 0.00836601760238} 

--------

@ DTG:  12-08-2016 07:36:21
mavlink msg: HWSTATUS {Vcc : 5327, I2Cerr : 0} 

--------

@ DTG:  12-08-2016 07:36:21
mavlink msg: SYSTEM_TIME {time_unix_usec : 1470987381734000, time_boot_ms : 281960} 

--------

@ DTG:  12-08-2016 07:36:21
mavlink msg: EKF_STATUS_REPORT {flags : 831, velocity_variance : 0.0798459649086, pos_horiz_variance : 0.0718913674355, pos_vert_variance : 0.0015611636918, compass_variance : 0.0251123458147, terrain_alt_variance : 0.0} 

--------

@ DTG:  12-08-2016 07:36:21
mavlink msg: GLOBAL_POSITION_INT {time_boot_ms : 281846, lat : -192815216, lon : 1468243713, alt : 6550, relative_alt : 60, vx : 15, vy : 32, vz : 3, hdg : 6995} 

--------

@ DTG:  12-08-2016 07:36:21
mavlink msg: LOCAL_POSITION_NED {time_boot_ms : 282041, x : -2.4035615921, y : 1.83660161495, z : -0.150258749723, vx : 0.1542352736, vy : 0.326170951128, vz : -0.0328012704849} 

--------

@ DTG:  12-08-2016 07:36:21
mavlink msg: ATTITUDE {time_boot_ms : 282061, roll : -0.00615122634917, pitch : -0.0143700279295, yaw : 1.22091817856, rollspeed : 0.00133551994804, pitchspeed : -0.0093095889315, yawspeed : 0.00335968681611} 

--------

@ DTG:  12-08-2016 07:36:21
mavlink msg: AHRS2 {roll : 0.00414513284341, pitch : -0.0401325523853, yaw : 1.20477437973, altitude : 0.0, lat : 0, lng : 0} 

--------

@ DTG:  12-08-2016 07:36:21
mavlink msg: VFR_HUD {airspeed : 0.0299999993294, groundspeed : 0.0299999993294, heading : 69, throttle : 8, alt : 0.0599999986589, climb : 0.0299999993294} 

--------

@ DTG:  12-08-2016 07:36:21
mavlink msg: ATTITUDE {time_boot_ms : 282308, roll : -0.00609912024811, pitch : -0.0131273875013, yaw : 1.22158312798, rollspeed : 0.00531839951873, pitchspeed : -0.000758439884521, yawspeed : 0.00226177694276} 

--------

@ DTG:  12-08-2016 07:36:21
mavlink msg: AHRS2 {roll : 0.00401041051373, pitch : -0.039686255157, yaw : 1.20528435707, altitude : 0.0, lat : 0, lng : 0} 

--------

@ DTG:  12-08-2016 07:36:21
mavlink msg: VFR_HUD {airspeed : 0.019999999553, groundspeed : 0.019999999553, heading : 69, throttle : 8, alt : 0.0599999986589, climb : 0.019999999553} 

--------

@ DTG:  12-08-2016 07:36:21
mavlink msg: RAW_IMU {time_usec : 282348972, xacc : 30, yacc : -3, zacc : -985, xgyro : -3, ygyro : -6, zgyro : 2, xmag : 165, ymag : -312, zmag : -347} 

--------

@ DTG:  12-08-2016 07:36:21
mavlink msg: SCALED_IMU2 {time_boot_ms : 282348, xacc : 21, yacc : 6, zacc : -1019, xgyro : -8, ygyro : -5, zgyro : 7, xmag : 135, ymag : -313, zmag : -424} 

--------

@ DTG:  12-08-2016 07:36:21
mavlink msg: SCALED_IMU3 {time_boot_ms : 282348, xacc : -13, yacc : -6, zacc : -1044, xgyro : -2, ygyro : 0, zgyro : -2, xmag : 407, ymag : -352, zmag : -254} 

--------

@ DTG:  12-08-2016 07:36:21
mavlink msg: SCALED_PRESSURE {time_boot_ms : 282349, press_abs : 1018.13995361, press_diff : -0.000156249996508, temperature : 3530} 

--------

@ DTG:  12-08-2016 07:36:21
mavlink msg: SCALED_PRESSURE2 {time_boot_ms : 282349, press_abs : 1018.80560303, press_diff : 0.175703123212, temperature : 5004} 

--------

@ DTG:  12-08-2016 07:36:21
mavlink msg: SYS_STATUS {onboard_control_sensors_present : 2227247, onboard_control_sensors_enabled : 2227247, onboard_control_sensors_health : 2227247, load : 25856, voltage_battery : 16621, current_battery : 141, battery_remaining : 98, drop_rate_comm : 0, errors_comm : 0, errors_count1 : 0, errors_count2 : 0, errors_count3 : 0, errors_count4 : 0} 

--------

@ DTG:  12-08-2016 07:36:21
mavlink msg: POWER_STATUS {Vcc : 5333, Vservo : 0, flags : 3} 

--------

@ DTG:  12-08-2016 07:36:21
mavlink msg: MEMINFO {brkval : 0, freemem : 59664} 

--------

@ DTG:  12-08-2016 07:36:21
mavlink msg: MISSION_CURRENT {seq : 0} 

--------

@ DTG:  12-08-2016 07:36:21
mavlink msg: GPS_RAW_INT {time_usec : 282254000, fix_type : 4, lat : -192815230, lon : 1468243682, alt : 4460, eph : 65, epv : 96, vel : 2, cog : 0, satellites_visible : 15} 

--------

@ DTG:  12-08-2016 07:36:21
mavlink msg: NAV_CONTROLLER_OUTPUT {nav_roll : 0.0, nav_pitch : 0.0, nav_bearing : 70, target_bearing : 90, wp_dist : 0, alt_error : 0.0, aspd_error : 0.0, xtrack_error : 0.0} 

--------

@ DTG:  12-08-2016 07:36:21
mavlink msg: FENCE_STATUS {breach_status : 0, breach_count : 0, breach_type : 0, breach_time : 0} 

--------

@ DTG:  12-08-2016 07:36:21
mavlink msg: SERVO_OUTPUT_RAW {time_usec : 282410700, port : 0, servo1_raw : 1074, servo2_raw : 1074, servo3_raw : 1074, servo4_raw : 1074, servo5_raw : 0, servo6_raw : 0, servo7_raw : 0, servo8_raw : 0} 

--------

@ DTG:  12-08-2016 07:36:21
mavlink msg: RC_CHANNELS_RAW {time_boot_ms : 282410, port : 0, chan1_raw : 1500, chan2_raw : 1500, chan3_raw : 1450, chan4_raw : 1499, chan5_raw : 1000, chan6_raw : 1462, chan7_raw : 1000, chan8_raw : 898, rssi : 0} 

--------

@ DTG:  12-08-2016 07:36:21
mavlink msg: AHRS {omegaIx : 0.00298128975555, omegaIy : 0.00448043411598, omegaIz : -0.0010519141797, accel_weight : 0.0, renorm_val : 0.0, error_rp : 0.0145993651822, error_yaw : 0.00868948362768} 

--------

@ DTG:  12-08-2016 07:36:21
mavlink msg: HWSTATUS {Vcc : 5339, I2Cerr : 0} 

--------

@ DTG:  12-08-2016 07:36:22
mavlink msg: SYSTEM_TIME {time_unix_usec : 1470987382253000, time_boot_ms : 282471} 

--------

@ DTG:  12-08-2016 07:36:22
mavlink msg: EKF_STATUS_REPORT {flags : 831, velocity_variance : 0.070165142417, pos_horiz_variance : 0.0728421658278, pos_vert_variance : 0.0013292436488, compass_variance : 0.0290428996086, terrain_alt_variance : 0.0} 

--------

@ DTG:  12-08-2016 07:36:22
mavlink msg: RADIO_STATUS {rssi : 0, remrssi : 221, txbuf : 0, noise : 0, remnoise : 0, rxerrors : 31, fixed : 0} 

--------

@ DTG:  12-08-2016 07:36:22
mavlink msg: GLOBAL_POSITION_INT {time_boot_ms : 282458, lat : -192815216, lon : 1468243713, alt : 6560, relative_alt : 70, vx : 14, vy : 29, vz : 3, hdg : 7003} 

--------

@ DTG:  12-08-2016 07:36:22
mavlink msg: LOCAL_POSITION_NED {time_boot_ms : 282553, x : -2.39762878418, y : 1.83248436451, z : -0.163083910942, vx : 0.149162232876, vy : 0.297137469053, vz : -0.0340395756066} 

--------

@ DTG:  12-08-2016 07:36:22
mavlink msg: ATTITUDE {time_boot_ms : 282553, roll : -0.00610255077481, pitch : -0.0121780391783, yaw : 1.22230219841, rollspeed : 0.00167013809551, pitchspeed : -0.00252752611414, yawspeed : 0.00470131868497} 

--------

@ DTG:  12-08-2016 07:36:22
mavlink msg: AHRS2 {roll : 0.0039472617209, pitch : -0.0396564155817, yaw : 1.20581293106, altitude : 0.0, lat : 0, lng : 0} 

--------

@ DTG:  12-08-2016 07:36:22
mavlink msg: VFR_HUD {airspeed : 0.019999999553, groundspeed : 0.019999999553, heading : 70, throttle : 8, alt : 0.070000000298, climb : 0.0299999993294} 

--------

@ DTG:  12-08-2016 07:36:22
mavlink msg: HEARTBEAT {type : 2, autopilot : 3, base_mode : 217, custom_mode : 5, system_status : 3, mavlink_version : 3} 

--------

@ DTG:  12-08-2016 07:36:22
mavlink msg: ATTITUDE {time_boot_ms : 282797, roll : -0.0060586403124, pitch : -0.0111055448651, yaw : 1.22300863266, rollspeed : -0.00358322635293, pitchspeed : -0.00421336805448, yawspeed : 0.00327087496407} 

--------

@ DTG:  12-08-2016 07:36:22
mavlink msg: AHRS2 {roll : 0.0040538306348, pitch : -0.0399404838681, yaw : 1.20632910728, altitude : 0.0, lat : 0, lng : 0} 

--------

@ DTG:  12-08-2016 07:36:22
mavlink msg: VFR_HUD {airspeed : 0.019999999553, groundspeed : 0.019999999553, heading : 70, throttle : 8, alt : 0.0799999982119, climb : 0.0299999993294} 

--------

@ DTG:  12-08-2016 07:36:22
mavlink msg: RAW_IMU {time_usec : 282858101, xacc : 28, yacc : 5, zacc : -995, xgyro : -2, ygyro : -6, zgyro : 2, xmag : 165, ymag : -312, zmag : -348} 

--------

@ DTG:  12-08-2016 07:36:22
mavlink msg: SCALED_IMU2 {time_boot_ms : 282858, xacc : 22, yacc : 13, zacc : -1021, xgyro : -4, ygyro : -4, zgyro : -1, xmag : 136, ymag : -312, zmag : -423} 

--------

@ DTG:  12-08-2016 07:36:22
mavlink msg: SCALED_IMU3 {time_boot_ms : 282858, xacc : -16, yacc : -2, zacc : -1049, xgyro : 0, ygyro : -1, zgyro : -3, xmag : 409, ymag : -345, zmag : -249} 

--------

@ DTG:  12-08-2016 07:36:22
mavlink msg: SCALED_PRESSURE {time_boot_ms : 282858, press_abs : 1018.12567139, press_diff : -0.0144531242549, temperature : 3531} 

--------

@ DTG:  12-08-2016 07:36:22
mavlink msg: SCALED_PRESSURE2 {time_boot_ms : 282858, press_abs : 1018.79840088, press_diff : 0.168515622616, temperature : 5005} 

--------

@ DTG:  12-08-2016 07:36:22
mavlink msg: SYS_STATUS {onboard_control_sensors_present : 2227247, onboard_control_sensors_enabled : 2227247, onboard_control_sensors_health : 2227247, load : 25984, voltage_battery : 16621, current_battery : 142, battery_remaining : 98, drop_rate_comm : 0, errors_comm : 0, errors_count1 : 0, errors_count2 : 0, errors_count3 : 0, errors_count4 : 0} 

--------

@ DTG:  12-08-2016 07:36:22
mavlink msg: POWER_STATUS {Vcc : 5335, Vservo : 0, flags : 3} 

--------

@ DTG:  12-08-2016 07:36:22
mavlink msg: MEMINFO {brkval : 0, freemem : 59664} 

--------

@ DTG:  12-08-2016 07:36:22
mavlink msg: MISSION_CURRENT {seq : 0} 

--------

@ DTG:  12-08-2016 07:36:22
mavlink msg: GPS_RAW_INT {time_usec : 282845000, fix_type : 4, lat : -192815229, lon : 1468243681, alt : 4470, eph : 65, epv : 96, vel : 1, cog : 0, satellites_visible : 15} 

--------

@ DTG:  12-08-2016 07:36:22
mavlink msg: NAV_CONTROLLER_OUTPUT {nav_roll : 0.0, nav_pitch : 0.0, nav_bearing : 70, target_bearing : 90, wp_dist : 0, alt_error : 0.0, aspd_error : 0.0, xtrack_error : 0.0} 

--------

@ DTG:  12-08-2016 07:36:22
mavlink msg: FENCE_STATUS {breach_status : 0, breach_count : 0, breach_type : 0, breach_time : 0} 

--------

@ DTG:  12-08-2016 07:36:22
mavlink msg: COMMAND_ACK {command : 42002, result : 0} 

--------

@ DTG:  12-08-2016 07:36:22
mavlink msg: SERVO_OUTPUT_RAW {time_usec : 282921073, port : 0, servo1_raw : 1117, servo2_raw : 1117, servo3_raw : 1117, servo4_raw : 1117, servo5_raw : 0, servo6_raw : 0, servo7_raw : 0, servo8_raw : 0} 

--------

@ DTG:  12-08-2016 07:36:22
mavlink msg: RC_CHANNELS_RAW {time_boot_ms : 282921, port : 0, chan1_raw : 1500, chan2_raw : 1500, chan3_raw : 1450, chan4_raw : 1499, chan5_raw : 1000, chan6_raw : 1462, chan7_raw : 1000, chan8_raw : 898, rssi : 0} 

--------

@ DTG:  12-08-2016 07:36:22
mavlink msg: AHRS {omegaIx : 0.00298032280989, omegaIy : 0.0045649735257, omegaIz : -0.00103917333763, accel_weight : 0.0, renorm_val : 0.0, error_rp : 0.012467504479, error_yaw : 0.0114479092881} 

--------

@ DTG:  12-08-2016 07:36:22
mavlink msg: HWSTATUS {Vcc : 5335, I2Cerr : 0} 

--------

@ DTG:  12-08-2016 07:36:22
mavlink msg: SYSTEM_TIME {time_unix_usec : 1470987382773000, time_boot_ms : 282998} 

--------

@ DTG:  12-08-2016 07:36:22
mavlink msg: EKF_STATUS_REPORT {flags : 831, velocity_variance : 0.0636621639132, pos_horiz_variance : 0.0733916833997, pos_vert_variance : 0.00215405062772, compass_variance : 0.0355863422155, terrain_alt_variance : 0.0} 

--------

@ DTG:  12-08-2016 07:36:22
mavlink msg: ATTITUDE {time_boot_ms : 283043, roll : -0.00610438035801, pitch : -0.0101003078744, yaw : 1.22341179848, rollspeed : 0.00190872524399, pitchspeed : -0.0140685904771, yawspeed : -0.00141498679295} 

--------

@ DTG:  12-08-2016 07:36:22
mavlink msg: AHRS2 {roll : 0.00410141516477, pitch : -0.0400317758322, yaw : 1.20647072792, altitude : 0.0, lat : 0, lng : 0} 

--------

@ DTG:  12-08-2016 07:36:22
mavlink msg: GLOBAL_POSITION_INT {time_boot_ms : 283051, lat : -192815215, lon : 1468243711, alt : 6580, relative_alt : 90, vx : 14, vy : 27, vz : 3, hdg : 7009} 

--------

@ DTG:  12-08-2016 07:36:22
mavlink msg: LOCAL_POSITION_NED {time_boot_ms : 283063, x : -2.39169716835, y : 1.81303429604, z : -0.180514335632, vx : 0.146476820111, vy : 0.270539820194, vz : -0.0340432450175} 

--------

@ DTG:  12-08-2016 07:36:22
mavlink msg: VFR_HUD {airspeed : 0.0, groundspeed : 0.0, heading : 70, throttle : 13, alt : 0.0899999961257, climb : 0.019999999553} 

--------

@ DTG:  12-08-2016 07:36:22
mavlink msg: ATTITUDE {time_boot_ms : 283289, roll : -0.00704048201442, pitch : -0.00822115968913, yaw : 1.22281110287, rollspeed : 0.00267941178754, pitchspeed : 0.00394842354581, yawspeed : -0.012104941532} 

--------

@ DTG:  12-08-2016 07:36:22
mavlink msg: AHRS2 {roll : 0.0033426375594, pitch : -0.0392208062112, yaw : 1.20570087433, altitude : 0.0, lat : 0, lng : 0} 

--------

@ DTG:  12-08-2016 07:36:22
mavlink msg: VFR_HUD {airspeed : 0.0, groundspeed : 0.0, heading : 70, throttle : 21, alt : 0.0899999961257, climb : 0.0299999993294} 

--------

@ DTG:  12-08-2016 07:36:22
mavlink msg: RAW_IMU {time_usec : 283372190, xacc : 36, yacc : 20, zacc : -995, xgyro : -32, ygyro : 5, zgyro : -5, xmag : 165, ymag : -314, zmag : -348} 

--------

@ DTG:  12-08-2016 07:36:22
mavlink msg: SCALED_IMU2 {time_boot_ms : 283372, xacc : 29, yacc : 40, zacc : -1033, xgyro : -4, ygyro : 3, zgyro : -9, xmag : 128, ymag : -345, zmag : -466} 

--------

@ DTG:  12-08-2016 07:36:22
mavlink msg: SCALED_IMU3 {time_boot_ms : 283372, xacc : 1, yacc : -3, zacc : -1056, xgyro : -19, ygyro : 3, zgyro : -6, xmag : 415, ymag : -414, zmag : -303} 

--------

@ DTG:  12-08-2016 07:36:22
mavlink msg: SCALED_PRESSURE {time_boot_ms : 283372, press_abs : 1018.26489258, press_diff : 0.124765619636, temperature : 3532} 

--------

@ DTG:  12-08-2016 07:36:22
mavlink msg: SCALED_PRESSURE2 {time_boot_ms : 283372, press_abs : 1018.9083252, press_diff : 0.278437495232, temperature : 5006} 

--------

@ DTG:  12-08-2016 07:36:22
mavlink msg: SYS_STATUS {onboard_control_sensors_present : 2227247, onboard_control_sensors_enabled : 2227247, onboard_control_sensors_health : 2227247, load : 25984, voltage_battery : 16621, current_battery : 430, battery_remaining : 98, drop_rate_comm : 0, errors_comm : 0, errors_count1 : 0, errors_count2 : 0, errors_count3 : 0, errors_count4 : 0} 

--------

@ DTG:  12-08-2016 07:36:22
mavlink msg: POWER_STATUS {Vcc : 5335, Vservo : 9, flags : 3} 

--------

@ DTG:  12-08-2016 07:36:22
mavlink msg: MEMINFO {brkval : 0, freemem : 59664} 

--------

@ DTG:  12-08-2016 07:36:22
mavlink msg: MISSION_CURRENT {seq : 0} 

--------

@ DTG:  12-08-2016 07:36:22
mavlink msg: GPS_RAW_INT {time_usec : 283257000, fix_type : 4, lat : -192815229, lon : 1468243680, alt : 4480, eph : 65, epv : 96, vel : 0, cog : 0, satellites_visible : 15} 

--------

@ DTG:  12-08-2016 07:36:22
mavlink msg: NAV_CONTROLLER_OUTPUT {nav_roll : -0.0399999767542, nav_pitch : 0.929999768734, nav_bearing : 70, target_bearing : 72, wp_dist : 0, alt_error : 0.276229172945, aspd_error : 0.0, xtrack_error : 0.0} 

--------

@ DTG:  12-08-2016 07:36:22
mavlink msg: FENCE_STATUS {breach_status : 0, breach_count : 0, breach_type : 0, breach_time : 0} 

--------

@ DTG:  12-08-2016 07:36:22
mavlink msg: SERVO_OUTPUT_RAW {time_usec : 283435792, port : 0, servo1_raw : 1374, servo2_raw : 1350, servo3_raw : 1370, servo4_raw : 1318, servo5_raw : 0, servo6_raw : 0, servo7_raw : 0, servo8_raw : 0} 

--------

@ DTG:  12-08-2016 07:36:22
mavlink msg: RC_CHANNELS_RAW {time_boot_ms : 283435, port : 0, chan1_raw : 1500, chan2_raw : 1500, chan3_raw : 1450, chan4_raw : 1499, chan5_raw : 1000, chan6_raw : 1462, chan7_raw : 1000, chan8_raw : 898, rssi : 0} 

--------

@ DTG:  12-08-2016 07:36:22
mavlink msg: AHRS {omegaIx : 0.0029843703378, omegaIy : 0.0046845888719, omegaIz : -0.00101501774043, accel_weight : 0.0, renorm_val : 0.0, error_rp : 0.0096452170983, error_yaw : 0.00876807793975} 

--------

@ DTG:  12-08-2016 07:36:22
mavlink msg: HWSTATUS {Vcc : 5339, I2Cerr : 0} 

--------

@ DTG:  12-08-2016 07:36:23
mavlink msg: SYSTEM_TIME {time_unix_usec : 1470987383274000, time_boot_ms : 283496} 

--------

@ DTG:  12-08-2016 07:36:23
mavlink msg: EKF_STATUS_REPORT {flags : 831, velocity_variance : 0.051691621542, pos_horiz_variance : 0.0728362351656, pos_vert_variance : 0.00245863362215, compass_variance : 0.0236263237894, terrain_alt_variance : 0.0} 

--------

@ DTG:  12-08-2016 07:36:23
mavlink msg: RADIO_STATUS {rssi : 0, remrssi : 221, txbuf : 0, noise : 0, remnoise : 0, rxerrors : 25, fixed : 0} 

--------

@ DTG:  12-08-2016 07:36:23
mavlink msg: ATTITUDE {time_boot_ms : 283538, roll : -0.00929169170558, pitch : -0.0031511336565, yaw : 1.21966338158, rollspeed : 0.0281017702073, pitchspeed : 0.0650630295277, yawspeed : 0.00209729047492} 

--------

@ DTG:  12-08-2016 07:36:23
mavlink msg: AHRS2 {roll : 0.00123287946917, pitch : -0.0352548882365, yaw : 1.20243048668, altitude : 0.0, lat : 0, lng : 0} 

--------

@ DTG:  12-08-2016 07:36:23
mavlink msg: VFR_HUD {airspeed : 0.00999999977648, groundspeed : 0.00999999977648, heading : 69, throttle : 31, alt : 0.0899999961257, climb : 0.0299999993294} 

--------

@ DTG:  12-08-2016 07:36:23
mavlink msg: GLOBAL_POSITION_INT {time_boot_ms : 283443, lat : -192815215, lon : 1468243708, alt : 6580, relative_alt : 90, vx : 10, vy : 19, vz : 6, hdg : 6990} 

--------

@ DTG:  12-08-2016 07:36:23
mavlink msg: LOCAL_POSITION_NED {time_boot_ms : 283578, x : -2.39286208153, y : 1.77770841122, z : -0.190433755517, vx : 0.109097376466, vy : 0.197565317154, vz : -0.064539052546} 

--------

@ DTG:  12-08-2016 07:36:23
mavlink msg: HEARTBEAT {type : 2, autopilot : 3, base_mode : 217, custom_mode : 5, system_status : 4, mavlink_version : 3} 

--------

@ DTG:  12-08-2016 07:36:23
mavlink msg: ATTITUDE {time_boot_ms : 283784, roll : 0.0171866733581, pitch : 0.0391191318631, yaw : 1.22419571877, rollspeed : 0.00755890645087, pitchspeed : 0.0774371773005, yawspeed : 0.0328085869551} 

--------

@ DTG:  12-08-2016 07:36:23
mavlink msg: AHRS2 {roll : 0.0275018569082, pitch : 0.00589008303359, yaw : 1.20650529861, altitude : 0.0, lat : 0, lng : 0} 

--------

@ DTG:  12-08-2016 07:36:23
mavlink msg: VFR_HUD {airspeed : 0.00999999977648, groundspeed : 0.00999999977648, heading : 70, throttle : 32, alt : 0.119999997318, climb : 0.25} 

--------

@ DTG:  12-08-2016 07:36:23
mavlink msg: RAW_IMU {time_usec : 283887720, xacc : -44, yacc : 14, zacc : -1059, xgyro : -65, ygyro : -127, zgyro : -12, xmag : 182, ymag : -326, zmag : -333} 

--------

@ DTG:  12-08-2016 07:36:23
mavlink msg: SCALED_IMU2 {time_boot_ms : 283887, xacc : -59, yacc : 19, zacc : -1095, xgyro : -91, ygyro : -128, zgyro : -11, xmag : 137, ymag : -383, zmag : -489} 

--------

@ DTG:  12-08-2016 07:36:23
mavlink msg: SCALED_IMU3 {time_boot_ms : 283887, xacc : -42, yacc : 7, zacc : -1116, xgyro : -72, ygyro : -138, zgyro : -15, xmag : 432, ymag : -429, zmag : -322} 

--------

@ DTG:  12-08-2016 07:36:23
mavlink msg: SCALED_PRESSURE {time_boot_ms : 283887, press_abs : 1018.51855469, press_diff : 0.378437489271, temperature : 3532} 

--------

@ DTG:  12-08-2016 07:36:23
mavlink msg: SCALED_PRESSURE2 {time_boot_ms : 283887, press_abs : 1019.13989258, press_diff : 0.509999990463, temperature : 5006} 

--------

@ DTG:  12-08-2016 07:36:23
mavlink msg: SYS_STATUS {onboard_control_sensors_present : 2227247, onboard_control_sensors_enabled : 2227247, onboard_control_sensors_health : 2227247, load : 25984, voltage_battery : 16374, current_battery : 1278, battery_remaining : 98, drop_rate_comm : 0, errors_comm : 0, errors_count1 : 0, errors_count2 : 0, errors_count3 : 0, errors_count4 : 0} 

--------

@ DTG:  12-08-2016 07:36:23
mavlink msg: POWER_STATUS {Vcc : 5339, Vservo : 0, flags : 3} 

--------

@ DTG:  12-08-2016 07:36:23
mavlink msg: MEMINFO {brkval : 0, freemem : 59664} 

--------

@ DTG:  12-08-2016 07:36:23
mavlink msg: MISSION_CURRENT {seq : 0} 

--------

@ DTG:  12-08-2016 07:36:23
mavlink msg: GPS_RAW_INT {time_usec : 283854000, fix_type : 4, lat : -192815229, lon : 1468243678, alt : 4490, eph : 65, epv : 96, vel : 2, cog : 0, satellites_visible : 15} 

--------

@ DTG:  12-08-2016 07:36:23
mavlink msg: NAV_CONTROLLER_OUTPUT {nav_roll : -0.699999928474, nav_pitch : -0.789999961853, nav_bearing : 70, target_bearing : 66, wp_dist : 0, alt_error : 0.658644676208, aspd_error : 0.0, xtrack_error : 0.0} 

--------

@ DTG:  12-08-2016 07:36:23
mavlink msg: FENCE_STATUS {breach_status : 0, breach_count : 0, breach_type : 0, breach_time : 0} 

--------

@ DTG:  12-08-2016 07:36:23
mavlink msg: SERVO_OUTPUT_RAW {time_usec : 283950637, port : 0, servo1_raw : 1414, servo2_raw : 1446, servo3_raw : 1395, servo4_raw : 1498, servo5_raw : 0, servo6_raw : 0, servo7_raw : 0, servo8_raw : 0} 

--------

@ DTG:  12-08-2016 07:36:23
mavlink msg: RC_CHANNELS_RAW {time_boot_ms : 283950, port : 0, chan1_raw : 1500, chan2_raw : 1500, chan3_raw : 1450, chan4_raw : 1499, chan5_raw : 1000, chan6_raw : 1462, chan7_raw : 1000, chan8_raw : 898, rssi : 0} 

--------

